{
"type": "FeatureCollection",
"name": "ikotstops",
"crs": { "type": "name", "properties": { "name": "urn:ogc:def:crs:OGC:1.3:CRS84" } },
"features": [
{ "type": "Feature", "properties": { "Name": "Romulo Hall PUJ Stop" }, "geometry": { "type": "Point", "coordinates": [ 121.072764515445641, 14.657037143826656, 0.0 ] } },
{ "type": "Feature", "properties": { "Name": "E. Ma. Guerrero cor. Magsaysay PUJ Stop South" }, "geometry": { "type": "Point", "coordinates": [ 121.072771544243707, 14.657456260805285, 0.0 ] } },
{ "type": "Feature", "properties": { "Name": "E. Ma. Guerrero cor. Magsaysay PUJ Stop North" }, "geometry": { "type": "Point", "coordinates": [ 121.07276725493611, 14.657641027540425, 0.0 ] } },
{ "type": "Feature", "properties": { "Name": "Ilang-Ilang RH PUJ Stop" }, "geometry": { "type": "Point", "coordinates": [ 121.07276855713566, 14.659044911208305, 0.0 ] } },
{ "type": "Feature", "properties": { "Name": "Agoncillo cor. Laurel PUJ Stop" }, "geometry": { "type": "Point", "coordinates": [ 121.0717845798155, 14.659448209954601, 0.0 ] } },
{ "type": "Feature", "properties": { "Name": "G. Apacible cor. Laurel PUJ Stop" }, "geometry": { "type": "Point", "coordinates": [ 121.070374715657579, 14.659440571506302, 0.0 ] } },
{ "type": "Feature", "properties": { "Name": "A. Roces cor. Laurel PUJ Stop" }, "geometry": { "type": "Point", "coordinates": [ 121.068676945613291, 14.659447294524169, 0.0 ] } },
{ "type": "Feature", "properties": { "Name": "Sanggumay RH PUJ Stop" }, "geometry": { "type": "Point", "coordinates": [ 121.068512972958899, 14.658938377924549, 0.0 ] } },
{ "type": "Feature", "properties": { "Name": "A. Roces cor. Magsaysay PUJ Stop" }, "geometry": { "type": "Point", "coordinates": [ 121.068487165607735, 14.657710037826792, 0.0 ] } },
{ "type": "Feature", "properties": { "Name": "Balagtas cor. Magsaysay PUJ Stop" }, "geometry": { "type": "Point", "coordinates": [ 121.067104009411011, 14.657585266509351, 0.0 ] } },
{ "type": "Feature", "properties": { "Name": "Ylanan cor. Magsaysay PUJ Stop" }, "geometry": { "type": "Point", "coordinates": [ 121.064983749743007, 14.657614272521556, 0.0 ] } },
{ "type": "Feature", "properties": { "Name": "E. Jacinto cor. Magsaysay PUJ Stop" }, "geometry": { "type": "Point", "coordinates": [ 121.062707414431713, 14.657751733260179, 0.0 ] } },
{ "type": "Feature", "properties": { "Name": "NCPAG PUJ Stop" }, "geometry": { "type": "Point", "coordinates": [ 121.06231441163402, 14.65665095820842, 0.0 ] } },
{ "type": "Feature", "properties": { "Name": "E. Jacinto cor. University Ave PUJ Stop" }, "geometry": { "type": "Point", "coordinates": [ 121.062250509316385, 14.654383148137443, 0.0 ] } },
{ "type": "Feature", "properties": { "Name": "CMO PUJ Stop" }, "geometry": { "type": "Point", "coordinates": [ 121.062272216563315, 14.652692526172913, 0.0 ] } },
{ "type": "Feature", "properties": { "Name": "College of Fine Arts PUJ Stop" }, "geometry": { "type": "Point", "coordinates": [ 121.062342236203563, 14.651866598909946, 0.0 ] } },
{ "type": "Feature", "properties": { "Name": "Village A & B PUJ Stop" }, "geometry": { "type": "Point", "coordinates": [ 121.062302540178308, 14.650410612198648, 0.0 ] } },
{ "type": "Feature", "properties": { "Name": "Hardin ng Dona Aurora PUJ Stop" }, "geometry": { "type": "Point", "coordinates": [ 121.062293159149775, 14.649725883710378, 0.0 ] } },
{ "type": "Feature", "properties": { "Name": "Centennial RH PUJ Stop" }, "geometry": { "type": "Point", "coordinates": [ 121.062281516794911, 14.648184773672995, 0.0 ] } },
{ "type": "Feature", "properties": { "Name": "KNL Portal PUJ Stop" }, "geometry": { "type": "Point", "coordinates": [ 121.062531040301224, 14.647358560714293, 0.0 ] } },
{ "type": "Feature", "properties": { "Name": "KNL Arko PUJ Stop" }, "geometry": { "type": "Point", "coordinates": [ 121.064368377336251, 14.647621537251858, 0.0 ] } },
{ "type": "Feature", "properties": { "Name": "D. Castaneda cor C.P. Garcia PUJ Stop" }, "geometry": { "type": "Point", "coordinates": [ 121.065725624223134, 14.647908525707312, 0.0 ] } },
{ "type": "Feature", "properties": { "Name": "Area 17 PUJ Stop" }, "geometry": { "type": "Point", "coordinates": [ 121.067091752388862, 14.647531320235217, 0.0 ] } },
{ "type": "Feature", "properties": { "Name": "Pook Aguinaldo PUJ Stop" }, "geometry": { "type": "Point", "coordinates": [ 121.068126678456252, 14.647163554193783, 0.0 ] } },
{ "type": "Feature", "properties": { "Name": "P. Velasquez Gate PUJ Stop" }, "geometry": { "type": "Point", "coordinates": [ 121.069002227281032, 14.647502900374157, 0.0 ] } },
{ "type": "Feature", "properties": { "Name": "NIGS PUJ Stop" }, "geometry": { "type": "Point", "coordinates": [ 121.068982408374154, 14.648515555465369, 0.0 ] } },
{ "type": "Feature", "properties": { "Name": "CS Library PUJ Stop" }, "geometry": { "type": "Point", "coordinates": [ 121.068973685266272, 14.648886494221284, 0.0 ] } },
{ "type": "Feature", "properties": { "Name": "EEEi PUJ Stop" }, "geometry": { "type": "Point", "coordinates": [ 121.068618915615801, 14.649899579006716, 0.0 ] } },
{ "type": "Feature", "properties": { "Name": "A. Roces cor Quirino PUJ Stop" }, "geometry": { "type": "Point", "coordinates": [ 121.068672721800368, 14.652302452571911, 0.0 ] } },
{ "type": "Feature", "properties": { "Name": "CAL PUJ Stop" }, "geometry": { "type": "Point", "coordinates": [ 121.068882816703137, 14.652429133637414, 0.0 ] } },
{ "type": "Feature", "properties": { "Name": "CSSP PUJ Stop" }, "geometry": { "type": "Point", "coordinates": [ 121.06937737358939, 14.652433239733604, 0.0 ] } },
{ "type": "Feature", "properties": { "Name": "Kamia / Sampaguita RH PUJ Stop" }, "geometry": { "type": "Point", "coordinates": [ 121.070870732536832, 14.652465230626117, 0.0 ] } },
{ "type": "Feature", "properties": { "Name": "Africa Street cor. Quirino PUJ Stop" }, "geometry": { "type": "Point", "coordinates": [ 121.071722712330399, 14.652634480768752, 0.0 ] } },
{ "type": "Feature", "properties": { "Name": "Africa Street cor. Roxas PUJ Stop" }, "geometry": { "type": "Point", "coordinates": [ 121.071706732644799, 14.653678819206363, 0.0 ] } },
{ "type": "Feature", "properties": { "Name": "Vinzons Hall PUJ Stop" }, "geometry": { "type": "Point", "coordinates": [ 121.073066869595678, 14.654257203197515, 0.0 ] } },
{ "type": "Feature", "properties": { "Name": "Economics PUJ Stop" }, "geometry": { "type": "Point", "coordinates": [ 121.072905363755069, 14.655911276983337, 0.0 ] } }
]
}
